{"name": "Apartamento InLove Bolh\u00e3", "address": "-8.63130521718327,41.1331635834269,-8.58349878281673,41.1690944165731", "score": {"global": "8,4", "staff": "9,7", "commodities": "8,3", "cleanliness": "8,3", "confort": "7,8", "price/quality": "7,3", "location": "9,0", "free-wifi": "10"}}{"name": "Apartamento Innapartments - Passos Manu", "address": "-8.63214310831072,41.1292989834269,-8.58433949168934,41.1652298165731", "score": {"global": "8,9", "staff": "8,3", "commodities": "8,7", "cleanliness": "9,0", "confort": "8,8", "price/quality": "8,7", "location": "9,5", "free-wifi": "8,9"}}{"name": "Apartamento EXKLUSIVE Bandeira 1018 Apartments", "address": "-8.63269771156697,41.1290335834269,-8.58489428843303,41.1649644165731", "score": {"global": "9,9", "staff": "9,9", "commodities": "9,9", "cleanliness": "9,9", "confort": "9,8", "price/quality": "9,6", "location": "10", "free-wifi": "9,4"}}{"name": "Apartamento Dragon House by JC", "address": "-8.63269771156697,41.1290335834269,-8.58489428843303,41.1649644165731", "score": {"global": "8,9", "staff": "9,2", "commodities": "8,9", "cleanliness": "9,2", "confort": "8,6", "price/quality": "8,3", "location": "9,4", "free-wifi": "7,5"}}{"name": "Apartamento Lit Apartments (2 Bedroom | City Center)", "address": "-8.63269741149406,41.1290333834269,-8.58489398850594,41.1649642165731", "score": {}}{"name": "Apartamento My Sweetest Apartment in Opor", "address": "-8.63484767574772,41.1344212834269,-8.58704032425232,41.1703521165731", "score": {"global": "9,6", "staff": "9,9", "commodities": "9,6", "cleanliness": "9,9", "confort": "9,4", "price/quality": "9,3", "location": "9,7", "free-wifi": "10"}}{"name": "Apartamento BmyGuest - 156 Trindade House & Terrac", "address": "-8.63484767574772,41.1344212834269,-8.58704032425232,41.1703521165731", "score": {"global": "8,4", "staff": "8,8", "commodities": "8,1", "cleanliness": "7,8", "confort": "8,3", "price/quality": "7,2", "location": "10", "free-wifi": "7,5"}}{"name": "Apartamento Koru Central Downtown Design Apartmen", "address": "-8.63080395139913,41.1324345834269,-8.58299804860087,41.1683654165731", "score": {}}{"name": "Apartamento Teatro Charming Apartmen", "address": "-8.63277859961642,41.1289745422319,-8.58497521952558,41.1649053753781", "score": {}}{"name": "Apartamento S\u00e1 da Bandeira Downtown Apartmen", "address": "-8.63260377915185,41.1290154221259,-8.58480036925815,41.1649462552721", "score": {}}{"name": "Apartamento UNA - Casa Portuguesa", "address": "-8.6350623856653,41.1344484834269,-8.5872550143347,41.1703793165731", "score": {}}{"name": "Apartamento Apartamentos Villa Bolha", "address": "-8.63059356209638,41.1311954409872,-8.58278856280443,41.1671262741334", "score": {"global": "9,4", "staff": "9,5", "commodities": "9,1", "cleanliness": "9,7", "confort": "9,4", "price/quality": "9,0", "location": "9,6", "free-wifi": "9,2"}}{"name": "Apartamento BO - Bolh\u00e3o Apartments", "address": "-8.63058552430491,41.1312196773936,-8.58278050734181,41.1671505105398", "score": {"global": "9,5", "staff": "9,8", "commodities": "9,4", "cleanliness": "9,6", "confort": "9,3", "price/quality": "9,3", "location": "9,6", "free-wifi": "8,8"}}{"name": "Apartamento Apartamento na Trindad", "address": "-8.63493911443195,41.1344700626944,-8.58713172736499,41.1704008958406", "score": {"global": "9,4", "staff": "9,6", "commodities": "9,2", "cleanliness": "9,5", "confort": "9,3", "price/quality": "9,2", "location": "9,4"}}{"name": "Apartamento Bom-Jardim Trindad", "address": "-8.6321675029212,41.1339472834269,-8.58436049707872,41.1698781165731", "score": {"global": "9,5", "staff": "9,8", "commodities": "9,5", "cleanliness": "9,7", "confort": "9,3", "price/quality": "9,3", "location": "9,3", "free-wifi": "10"}}{"name": "Apartamento Liiiving In Porto | Alma D Opor", "address": "-8.63584833385332,41.1343063834269,-8.58804106614669,41.1702372165731", "score": {}}{"name": "Apartamento LovelyStay - Rico's Apartment - Almada 1\u00baF", "address": "-8.63610967292816,41.1289275834269,-8.58830632707184,41.1648584165731", "score": {}}{"name": "Apartamento LovelyStay - Rico's Apartment - Almada 2\u00ba F", "address": "-8.63610967292816,41.1289275834269,-8.58830632707184,41.1648584165731", "score": {"global": "9,2", "staff": "9,2", "commodities": "9,2", "cleanliness": "9,4", "confort": "9,2", "price/quality": "8,9", "location": "9,4"}}{"name": "Apartamento LovelyStay - Dirk Apartment - Almada 4\u00ba F", "address": "-8.63610967292816,41.1289275834269,-8.58830632707184,41.1648584165731", "score": {}}{"name": "Apartamento LovelyStay - Dirk Apartment Almada 3\u00ba T", "address": "-8.63610967292816,41.1289275834269,-8.58830632707184,41.1648584165731", "score": {}}{"name": "Apartamento Bonjardim Apartment Porto Center", "address": "-8.63211649938454,41.1339375834269,-8.58430950061546,41.1698684165731", "score": {}}{"name": "Apartamento Verde Lima,Oporto City Center Apartmen", "address": "-8.63211619949392,41.1339378834269,-8.58430920050608,41.1698687165731", "score": {}}{"name": "Apartamento Cozy Flat Porto Downtown", "address": "-8.63210941121762,41.1339446347673,-8.58430240730658,41.1698754679135", "score": {"global": "9,4", "staff": "9,7", "commodities": "9,3", "cleanliness": "9,8", "confort": "9,2", "price/quality": "9,2", "location": "9,1", "free-wifi": "9,4"}}{"name": "Apartamento JF Friends and Family Apartment DOWNTOW", "address": "-8.63825440819448,41.1309445834269,-8.59044959180553,41.1668754165731", "score": {}}{"name": "Apartamento Large Flat w/ Terrace | Ace Location @ Aliados", "address": "-8.63508969809877,41.1344825834269,-8.58728230190123,41.1704134165731", "score": {"global": "6,8", "staff": "7,8", "commodities": "6,1", "cleanliness": "5,8", "confort": "5,8", "price/quality": "6,1", "location": "8,9"}}{"name": "Apartamento LETHESHOME Apartments", "address": "-8.63310377056534,41.1287938110775,-8.58530052223302,41.1647246442237", "score": {"global": "9,7", "staff": "9,8", "commodities": "9,6", "cleanliness": "9,8", "confort": "9,7", "price/quality": "9,3", "location": "9,9", "free-wifi": "9,2"}}{"name": "Apartamento Oporto Sweet Home I", "address": "-8.63490990859978,41.1345113834269,-8.58710249140022,41.1704422165731", "score": {}}{"name": "Apartamento Oporto Sweet Home V", "address": "-8.63490970867271,41.1345115834269,-8.58710229132729,41.1704424165731", "score": {}}{"name": "Apartamento Oporto Sweet Home IV", "address": "-8.63490970867271,41.1345115834269,-8.58710229132729,41.1704424165731", "score": {}}{"name": "Apartamento OPORTO SWEET HOME II", "address": "-8.63490970867271,41.1345115834269,-8.58710229132729,41.1704424165731", "score": {}}{"name": "Quartos em acomoda\u00e7\u00e3o particular VRS - PORTO CENTRE TRINDADE STUDIO", "address": "-8.6340726410491,41.134531406204,-8.58626520924816,41.1704622393502", "score": {"global": "", "staff": "6,9", "commodities": "6,4", "cleanliness": "6,3", "confort": "6,3", "price/quality": "6,7", "location": "8,8", "free-wifi": "10"}}{"name": "Apartamento Liiiving in Porto | Downtown Balcony Apartmen", "address": "-8.6374673603577,41.1334931431124,-8.58966068567819,41.1694239762586", "score": {}}{"name": "Apartamento Liiiving In Porto | Bolh\u00e3o Market Apartments", "address": "-8.63047253578921,41.1312945834269,-8.58266746421079,41.1672254165731", "score": {}}{"name": "Apartamento BmyGuest - Bolh\u00e3o Central Lof", "address": "-8.63047243567991,41.1312942834269,-8.58266736432022,41.1672251165731", "score": {"global": "9,4", "staff": "9,3", "commodities": "9,5", "cleanliness": "9,5", "confort": "9,4", "price/quality": "8,8", "location": "9,8", "free-wifi": "10"}}{"name": "Apartamento the5rooms.por", "address": "-8.63105590249342,41.1331638548475,-8.58324946792897,41.1690946879937", "score": {"global": "9,8", "staff": "9,9", "commodities": "10", "cleanliness": "9,9", "confort": "9,9", "price/quality": "9,5", "location": "9,4", "free-wifi": "9,2"}}{"name": "Apartamento Metro-Apartmen", "address": "-8.63409210191981,41.1345721482688,-8.58628464040816,41.1705029814149", "score": {"global": "6,9", "staff": "6,8", "commodities": "6,6", "cleanliness": "7,1", "confort": "6,4", "price/quality": "6,2", "location": "8,4", "free-wifi": "6,2"}}{"name": "Apartamento MT Trindad", "address": "-8.634197805552,41.1345886299517,-8.58639033202125,41.1705194630979", "score": {"global": "9,3", "staff": "9,9", "commodities": "8,7", "cleanliness": "9,7", "confort": "8,9", "price/quality": "8,8", "location": "9,7", "free-wifi": "9,2"}}{"name": "Casa de h\u00f3spedes Oporto Trindade Residenc", "address": "-8.63413864869897,41.1345875956582,-8.58633117592247,41.1705184288044", "score": {"global": "", "staff": "8,3", "commodities": "7,3", "cleanliness": "8,4", "confort": "7,6", "price/quality": "8,0", "location": "9,0", "free-wifi": "8,2"}}{"name": "Apartamento TPC - Loft Trindad", "address": "-8.6341028395925,41.1345963834269,-8.5862953604076,41.1705272165731", "score": {"global": "8,7", "staff": "9,1", "commodities": "8,1", "cleanliness": "8,4", "confort": "8,8", "price/quality": "8,1", "location": "9,4", "free-wifi": "10"}}{"name": "Apartamento Oporto Town Hall Flat by Urban P", "address": "-8.63410283959245,41.1345963834269,-8.58629536040755,41.1705272165731", "score": {"global": "9,9", "staff": "10", "commodities": "10", "cleanliness": "10", "confort": "9,5", "price/quality": "10", "location": "10"}}{"name": "Apartamento Trindade Oporto Apartments Group", "address": "-8.6341028395925,41.1345963834269,-8.5862953604076,41.1705272165731", "score": {"global": "7,6", "staff": "7,3", "commodities": "7,2", "cleanliness": "7,6", "confort": "7,0", "price/quality": "7,4", "location": "8,8", "free-wifi": "7,8"}}{"name": "Apartamento Trindade Apartmen", "address": "-8.63410273966537,41.1345965834269,-8.58629526033463,41.1705274165731", "score": {"global": "9,4", "staff": "9,7", "commodities": "9,4", "cleanliness": "9,5", "confort": "9,2", "price/quality": "8,9", "location": "9,4"}}{"name": "Apartamento Indulge Porto Flats", "address": "-8.63818757216528,41.1326964204771,-8.59038147844435,41.1686272536233", "score": {"global": "9,3", "staff": "9,3", "commodities": "8,9", "cleanliness": "9,7", "confort": "9,2", "price/quality": "8,9", "location": "9,4"}}{"name": "Quartos em acomoda\u00e7\u00e3o particular Home Sweet Home... Bolha", "address": "-8.63065235122203,41.1327083834269,-8.58284624877806,41.1686392165731", "score": {"global": "", "staff": "9,6", "commodities": "9,2", "cleanliness": "9,4", "confort": "9,3", "price/quality": "9,2", "location": "9,6", "free-wifi": "9,5"}}{"name": "Apartamento Innapartments - Trindad", "address": "-8.63520015571093,41.1345985486921,-8.58739267494703,41.1705293818383", "score": {"global": "8,0", "staff": "7,5", "commodities": "7,6", "cleanliness": "8,0", "confort": "7,8", "price/quality": "8,0", "location": "9,0", "free-wifi": "8,3"}}{"name": "Apartamento Apartment Bolhao Market by Sweet Por", "address": "-8.63037035144619,41.1320022325218,-8.58256476389799,41.167933065668", "score": {"global": "9,1", "staff": "9,5", "commodities": "8,8", "cleanliness": "9,3", "confort": "8,8", "price/quality": "8,7", "location": "9,6", "free-wifi": "8,7"}}{"name": "Apartamento AtticOpor", "address": "-8.63808965162952,41.1329837834269,-8.5902833483704,41.1689146165731", "score": {"global": "8,7", "staff": "8,2", "commodities": "8,4", "cleanliness": "9,0", "confort": "8,5", "price/quality": "8,8", "location": "9,3", "free-wifi": "10"}}{"name": "Apartamento Oporto Charm", "address": "-8.63217618153121,41.1341628834269,-8.58436901846871,41.1700937165731", "score": {"global": "9,3", "staff": "9,5", "commodities": "9,4", "cleanliness": "9,9", "confort": "9,4", "price/quality": "8,8", "location": "8,7", "free-wifi": "9,2"}}{"name": "Apartamento LovelyStay - Urban Loft - Porto Downtown", "address": "-8.63832440499264,41.1325815834269,-8.5905183950073,41.1685124165731", "score": {}}{"name": "Apartamento TPC - Big Lights", "address": "-8.63841292697227,41.1323675834269,-8.59060707302773,41.1682984165731", "score": {"global": "8,5", "staff": "8,4", "commodities": "8,4", "cleanliness": "8,6", "confort": "8,4", "price/quality": "8,2", "location": "8,8"}}{"name": "Apartamento Liiiving in Porto | Heart of Porto Apartmen", "address": "-8.63809985213997,41.1329851834269,-8.59029354785999,41.1689160165731", "score": {"global": "9,3", "staff": "10", "commodities": "9,5", "cleanliness": "10", "confort": "9,5", "price/quality": "9,0", "location": "7,5"}}{"name": "Casa de h\u00f3spedes Paraty Alojamento Loca", "address": "-8.63777897876361,41.1297665834269,-8.58997502123639,41.1656974165731", "score": {"global": "", "staff": "8,8", "commodities": "7,2", "cleanliness": "7,8", "confort": "7,2", "price/quality": "7,8", "location": "9,2", "free-wifi": "8,2"}}{"name": "Apartamento M\u00e1rtires da Liberdade Garden", "address": "-8.6380588259813,41.1330501944564,-8.5902524742964,41.1689810276026", "score": {}}{"name": "Apartamento Liiiving in Porto | Downtown Garden Apartmen", "address": "-8.6351130542866,41.1346366834269,-8.58730554571326,41.1705675165731", "score": {"global": "8,9", "staff": "8,8", "commodities": "9,0", "cleanliness": "9,0", "confort": "8,8", "price/quality": "8,8", "location": "9,2"}}{"name": "Alojamento de acomoda\u00e7\u00e3o e pequeno-almo\u00e7o D'Autor Apartments", "address": "-8.630616074993,41.1327735834269,-8.58280992500699,41.1687044165731", "score": {"global": "", "staff": "9,6", "commodities": "9,4", "cleanliness": "9,9", "confort": "9,5", "price/quality": "8,6", "location": "9,5", "free-wifi": "9,6"}}{"name": "Apartamento ORM - M\u00e1rtires Apartmen", "address": "-8.63811431825099,41.1330118952561,-8.59030799449323,41.1689427284023", "score": {}}{"name": "Casa de h\u00f3spedes Peninsular", "address": "-8.63412703471519,41.1284294022531,-8.58632405204438,41.1643602353993", "score": {"global": "", "staff": "7,5", "commodities": "6,2", "cleanliness": "7,1", "confort": "6,2", "price/quality": "7,2", "location": "9,1", "free-wifi": "6,2"}}{"name": "Apartamento Ana D'ouro Apartment II", "address": "-8.63027680228721,41.1320255834269,-8.5824711977128,41.1679564165731", "score": {"global": "9,6", "staff": "9,8", "commodities": "9,2", "cleanliness": "9,8", "confort": "9,4", "price/quality": "9,5", "location": "10", "free-wifi": "10"}}{"name": "Apartamento BOUTIQUE RENTALS - Provence Apartmen", "address": "-8.63535355190496,41.1346592834386,-8.58754602685073,41.1705901165847", "score": {}}{"name": "Alojamento de acomoda\u00e7\u00e3o e pequeno-almo\u00e7o Porto Vintage Guesthous", "address": "-8.63583692475248,41.1345556834269,-8.58802947524765,41.1704865165731", "score": {"global": "", "staff": "9,5", "commodities": "8,8", "cleanliness": "9,5", "confort": "8,9", "price/quality": "8,8", "location": "9,1", "free-wifi": "8,2"}}{"name": "Casa de h\u00f3spedes Residencial Portuguesa", "address": "-8.63824183494937,41.132908124986,-8.59043558685887,41.1688389581322", "score": {"global": "", "staff": "7,8", "commodities": "5,9", "cleanliness": "7,0", "confort": "5,8", "price/quality": "7,1", "location": "8,2"}}{"name": "Apartamento TPC Madriguera's", "address": "-8.63862948795797,41.1317119834269,-8.59082411204197,41.1676428165731", "score": {"global": "7,0", "staff": "7,4", "commodities": "6,4", "cleanliness": "6,3", "confort": "6,6", "price/quality": "6,8", "location": "8,6", "free-wifi": "7,5"}}{"name": "Apartamento BmyGuest - Almada Tiles Apartmen", "address": "-8.63583772617445,41.1345595834269,-8.58803027382559,41.1704904165731", "score": {"global": "8,9", "staff": "9,0", "commodities": "9,0", "cleanliness": "8,7", "confort": "8,8", "price/quality": "8,6", "location": "9,5", "free-wifi": "10"}}{"name": "Apartamento Liiiving in Porto | Luxury Boutique Apartmen", "address": "-8.6317767414575,41.1291155834269,-8.5839732585425,41.1650464165731", "score": {}}{"name": "Alojamento de acomoda\u00e7\u00e3o e pequeno-almo\u00e7o Porto Est. 1830", "address": "-8.63735600105667,41.1292790834269,-8.58955239894329,41.1652099165731", "score": {"global": "", "staff": "9,5", "commodities": "8,9", "cleanliness": "9,6", "confort": "9,1", "price/quality": "8,8", "location": "9,4", "free-wifi": "9,6"}}{"name": "Apartamento Pontocom Bolh\u00e3o Apartmen", "address": "-8.63022362886944,41.131982772833,-8.58241805551017,41.1679136059792", "score": {"global": "9,1", "staff": "9,2", "commodities": "8,7", "cleanliness": "9,5", "confort": "8,7", "price/quality": "8,5", "location": "9,6", "free-wifi": "10"}}{"name": "Apartamento Bolh\u00e3o Guesthous", "address": "-8.63022354945342,41.1320018473186,-8.58241796218608,41.1679326804648", "score": {"global": "8,9", "staff": "9,2", "commodities": "8,4", "cleanliness": "8,8", "confort": "8,4", "price/quality": "8,6", "location": "9,8", "free-wifi": "10"}}{"name": "Apartamento outlanders", "address": "-8.63609306452185,41.1286301834269,-8.58828993547805,41.1645610165731", "score": {}}{"name": "Apartamento Galerias Paris Downtown Apartments", "address": "-8.63800736542624,41.1298432372871,-8.59020335201342,41.1657740704333", "score": {"global": "9,3", "staff": "9,7", "commodities": "9,1", "cleanliness": "9,5", "confort": "8,8", "price/quality": "9,0", "location": "9,7", "free-wifi": "9,8"}}{"name": "Apartamento TPC - Lux Pear", "address": "-8.63054811947273,41.1328955834269,-8.58274188052727,41.1688264165731", "score": {}}{"name": "Apartamento Lux Bolh\u00e3", "address": "-8.63054811947273,41.1328955834269,-8.58274188052727,41.1688264165731", "score": {"global": "9,7", "staff": "9,6", "commodities": "9,6", "cleanliness": "9,6", "confort": "10", "price/quality": "9,6", "location": "10", "free-wifi": "10"}}{"name": "Apartamento Urban Suite da Bandeira", "address": "-8.63054811947273,41.1328955834269,-8.58274188052727,41.1688264165731", "score": {"global": "9,2", "staff": "8,9", "commodities": "9,7", "cleanliness": "9,0", "confort": "9,7", "price/quality": "8,6", "location": "9,5", "free-wifi": "10"}}{"name": "Apartamento TPC - Another Journey", "address": "-8.63054811947273,41.1328955834269,-8.58274188052727,41.1688264165731", "score": {}}{"name": "Apartamento Oporto Dreams Apartment by Porto City Hosts", "address": "-8.63054811947273,41.1328955834269,-8.58274188052727,41.1688264165731", "score": {"global": "9,3", "staff": "9,7", "commodities": "9,1", "cleanliness": "8,9", "confort": "9,5", "price/quality": "8,8", "location": "9,8", "free-wifi": "7,5"}}{"name": "Apartamento TPC Sliding Doors", "address": "-8.63869354377258,41.1315907834269,-8.59088825622742,41.1675216165731", "score": {"global": "9,2", "staff": "9,2", "commodities": "9,2", "cleanliness": "8,9", "confort": "9,0", "price/quality": "8,8", "location": "10"}}{"name": "Apartamento Merc Porto Cl\u00e9rigo's Plac", "address": "-8.63795471933827,41.1297684859814,-8.59015076042397,41.1656993191276", "score": {"global": "9,6", "staff": "9,6", "commodities": "9,5", "cleanliness": "9,5", "confort": "9,5", "price/quality": "9,2", "location": "9,9", "free-wifi": "9,5"}}{"name": "Apartamento OUTLANDERS. Porto city center. Vintage Studi", "address": "-8.63595613149788,41.1345741834269,-8.58814866850212,41.1705050165731", "score": {}}{"name": "Apartamento OUTLANDERS. Porto city center. Vintage Lof", "address": "-8.63595613149788,41.1345741834269,-8.58814866850212,41.1705050165731", "score": {}}{"name": "Casa de h\u00f3spedes Pictoresc wooden room for 4", "address": "-8.63595573164373,41.1345745834269,-8.58814826835627,41.1705054165731", "score": {}}{"name": "Apartamento Feels Like Home Almada Cozy Apartmen", "address": "-8.63612656175162,41.1286225834269,-8.58832343824838,41.1645534165731", "score": {}}{"name": "Apartamento Oporto AAA - Almada Aliados Apartmen", "address": "-8.63612626167872,41.1286223834269,-8.58832313832128,41.1645532165731", "score": {}}{"name": "Apartamento Guest H4U - Flores Lello City Center", "address": "-8.63612626167872,41.1286223834269,-8.58832313832128,41.1645532165731", "score": {}}{"name": "Apartamento Beautiful 1bed in Central Downtown", "address": "-8.63611902146937,41.1286078671259,-8.58831590869463,41.1645387002721", "score": {}}{"name": "Apartamento Downtown Porto Relaxed Apartment with Private Yard", "address": "-8.63263144930547,41.1345220814199,-8.58482402430452,41.1704529145661", "score": {}}{"name": "Apartamento LaMovida", "address": "-8.63828510270538,41.1301065834269,-8.59048089729462,41.1660374165731", "score": {"global": "8,0", "staff": "8,5", "commodities": "7,6", "cleanliness": "7,9", "confort": "7,1", "price/quality": "7,8", "location": "8,9", "free-wifi": "7,9"}}{"name": "Apartamento Feels Like Home Porto Charming Studi", "address": "-8.63778128865399,41.1336288030529,-8.5899745150509,41.1695596361991", "score": {"global": "8,1", "staff": "8,4", "commodities": "7,9", "cleanliness": "8,3", "confort": "7,8", "price/quality": "8,3", "location": "8,0", "free-wifi": "7,5"}}{"name": "Apartamento Charme do Bolh\u00e3", "address": "-8.63012368134339,41.131937649321,-8.58231814088565,41.1678684824672", "score": {}}{"name": "Apartamento HeartMade Lof", "address": "-8.63766479651814,41.1337503128542,-8.5898579343092,41.1696811460004", "score": {}}{"name": "stel Oporto Invictus Hos", "address": "-8.63876379275188,41.1318043779827,-8.59095834946766,41.1677352111289", "score": {"global": "", "staff": "9,2", "commodities": "8,5", "cleanliness": "8,9", "confort": "8,1", "price/quality": "8,7", "location": "9,2", "free-wifi": "9,0"}}{"name": "stel PILOT Design Hostel & Bar", "address": "-8.63870558392963,41.1321588312416,-8.59089988219777,41.1680896643878", "score": {"global": "", "staff": "9,2", "commodities": "8,6", "cleanliness": "8,6", "confort": "8,4", "price/quality": "8,8", "location": "9,3", "free-wifi": "8,4"}}{"name": "Apartamento HeartMade Studi", "address": "-8.63766344031824,41.1337755834269,-8.58985655968175,41.1697064165731", "score": {}}{"name": "stel Selina Por", "address": "-8.6387856874476,41.1317105834269,-8.5909803125524,41.1676414165731", "score": {"global": "", "staff": "9,0", "commodities": "8,9", "cleanliness": "9,2", "confort": "8,9", "price/quality": "8,8", "location": "9,5", "free-wifi": "7,6"}}{"name": "Apartamento Inn Oporto Downtown New Apartments", "address": "-8.63879984434078,41.1315461773609,-8.59099458931922,41.1674770105071", "score": {"global": "9,8", "staff": "9,9", "commodities": "9,8", "cleanliness": "10", "confort": "9,7", "price/quality": "9,7", "location": "9,5", "free-wifi": "10"}}{"name": "Apartamento Crowntown Apartments", "address": "-8.63204764267704,41.1343305834269,-8.58424035732304,41.1702614165731", "score": {"global": "9,6", "staff": "9,9", "commodities": "9,6", "cleanliness": "9,8", "confort": "9,7", "price/quality": "9,7", "location": "9,2", "free-wifi": "9,3"}}{"name": "Apartamento The Liberty & Surf Studi", "address": "-8.63758883984169,41.1338573527436,-8.58978189957803,41.1697881858898", "score": {"global": "8,4", "staff": "8,8", "commodities": "8,3", "cleanliness": "8,8", "confort": "7,9", "price/quality": "8,8", "location": "7,9"}}{"name": "Apartamento LovelyStay - Allderman Apartment - Almada 3\u00ba F", "address": "-8.63603952019755,41.1285085834269,-8.58823647980245,41.1644394165731", "score": {}}{"name": "Apartamento LovelyStay - Allderman Apartment - Almada 1\u00ba T", "address": "-8.63603952019755,41.1285085834269,-8.58823647980245,41.1644394165731", "score": {}}{"name": "Apartamento TPC - Lumier", "address": "-8.63880816466983,41.1314713581839,-8.59100296420095,41.1674021913301", "score": {"global": "9,5", "staff": "9,7", "commodities": "9,7", "cleanliness": "9,2", "confort": "9,4", "price/quality": "9,4", "location": "9,7"}}{"name": "Apartamento Liiiving in Porto | Central Secret Balcony", "address": "-8.63766345162102,41.1338065834269,-8.58985654837898,41.1697374165731", "score": {}}{"name": "Apartamento Oportments - Oliveiras", "address": "-8.63881709952145,41.1315670150269,-8.59101182930655,41.1674978481731", "score": {"global": "9,7", "staff": "9,9", "commodities": "9,7", "cleanliness": "9,9", "confort": "9,6", "price/quality": "9,6", "location": "9,7"}}{"name": "Alojamento de acomoda\u00e7\u00e3o e pequeno-almo\u00e7o TMJ BeB", "address": "-8.63740624586817,41.1291276834269,-8.58960275413179,41.1650585165731", "score": {"global": "", "staff": "9,1", "commodities": "7,1", "cleanliness": "8,3", "confort": "7,0", "price/quality": "7,6", "location": "9,1", "free-wifi": "8,1"}}{"name": "Apartamento Santa Catarina Apartments", "address": "-8.63009921377216,41.1309598834269,-8.58229438622788,41.1668907165731", "score": {"global": "9,4", "staff": "9,3", "commodities": "9,3", "cleanliness": "9,6", "confort": "9,4", "price/quality": "9,2", "location": "9,8", "free-wifi": "9,2"}}{"name": "Apartamento Feels Like Home Porto Traveller's Nes", "address": "-8.6387069390034,41.1324005834269,-8.5909010609966,41.1683314165731", "score": {}}{"name": "Apartamento BmyGuest - Carlos Alberto Theater Apartmen", "address": "-8.63883853469553,41.1312915834269,-8.59103346530447,41.1672224165731", "score": {"global": "8,7", "staff": "8,5", "commodities": "9,0", "cleanliness": "8,5", "confort": "9,5", "price/quality": "8,5", "location": "8,0"}}{"name": "Apartamento Lofts & Studios | Conde de Vizela", "address": "-8.63743003416848,41.1291140933094,-8.58962655233982,41.1650449264556", "score": {"global": "8,1", "staff": "7,6", "commodities": "7,8", "cleanliness": "8,3", "confort": "7,8", "price/quality": "8,1", "location": "8,9"}}{"name": "Apartamento Oporto City Centre Apartments", "address": "-8.63010525868748,41.1308076572665,-8.58230054213192,41.1667384904127", "score": {"global": "7,9", "staff": "7,9", "commodities": "7,3", "cleanliness": "7,6", "confort": "7,5", "price/quality": "7,5", "location": "9,2", "free-wifi": "7,9"}}{"name": "Apartamento Cool in Porto Downtown", "address": "-8.63776084198082,41.1337935647357,-8.58995394823216,41.1697243978819", "score": {"global": "8,8", "staff": "9,4", "commodities": "8,4", "cleanliness": "9,0", "confort": "8,5", "price/quality": "9,0", "location": "8,8", "free-wifi": "10"}}{"name": "Apartamento Rose Green Lof", "address": "-8.6376515537706,41.1338850469434,-8.58984459331194,41.1698158800896", "score": {"global": "9,9", "staff": "9,9", "commodities": "9,9", "cleanliness": "10", "confort": "9,9", "price/quality": "9,9", "location": "9,7", "free-wifi": "10"}}{"name": "Apartamento Imperium Apartments", "address": "-8.63600600864015,41.1284398625706,-8.58820301834362,41.1643706957168", "score": {"global": "9,0", "staff": "9,2", "commodities": "8,6", "cleanliness": "8,8", "confort": "8,6", "price/quality": "8,8", "location": "9,8", "free-wifi": "9,7"}}{"name": "Apartamento JF QUIET GALERIAS APARTMENT DOWNTOWN", "address": "-8.63826391302965,41.1298605834269,-8.59045988697035,41.1657914165731", "score": {}}{"name": "Apartamento Lions Hous", "address": "-8.63889175271368,41.1316823721695,-8.59108639838826,41.1676132053157", "score": {"global": "8,1", "staff": "8,3", "commodities": "7,8", "cleanliness": "8,7", "confort": "7,6", "price/quality": "7,6", "location": "8,3", "free-wifi": "8,8"}}{"name": "Apartamento Oporto Stories Apartments", "address": "-8.63036992986351,41.1301810834269,-8.58256567013652,41.1661119165731", "score": {"global": "9,3", "staff": "9,5", "commodities": "9,2", "cleanliness": "9,4", "confort": "9,1", "price/quality": "8,9", "location": "9,6", "free-wifi": "9,6"}}{"name": "Apartamento Loft M\u00e1rtires", "address": "-8.63769907557566,41.1338722834269,-8.58989212442434,41.1698031165731", "score": {"global": "9,7", "staff": "9,9", "commodities": "9,7", "cleanliness": "9,9", "confort": "9,4", "price/quality": "9,6", "location": "9,7", "free-wifi": "10"}}{"name": "Apartamento OPORTO GUEST Downtown", "address": "-8.63769947568504,41.1338725834269,-8.58989252431496,41.1698034165731", "score": {"global": "8,4", "staff": "8,4", "commodities": "8,4", "cleanliness": "8,3", "confort": "8,0", "price/quality": "8,2", "location": "8,9", "free-wifi": "8,1"}}{"name": "Apartamento Century XIX Designer Fla", "address": "-8.63769947568504,41.1338725834269,-8.58989252431496,41.1698034165731", "score": {}}{"name": "Apartamento Oporto Stories Apartments - Santa Catarina, 359", "address": "-8.62994507680234,41.1314070834269,-8.58213992319777,41.1673379165731", "score": {"global": "", "staff": "9,4", "commodities": "9,2", "cleanliness": "9,5", "confort": "9,2", "price/quality": "8,9", "location": "9,7", "free-wifi": "9,5"}}{"name": "Apartamento Mezzanine cozy hous", "address": "-8.63764350230141,41.1339455834269,-8.58983649769859,41.1698764165731", "score": {"global": "9,0", "staff": "9,3", "commodities": "9,6", "cleanliness": "8,9", "confort": "8,3", "price/quality": "8,9", "location": "8,9"}}{"name": "Apartamento Casa da Luz - Lighthouse of Por", "address": "-8.63045345389394,41.1299726834269,-8.58264934610606,41.1659035165731", "score": {}}{"name": "Apartamento LovelyStay - Choose Oporto Apartmen", "address": "-8.63045305385749,41.1299725834269,-8.58264894614251,41.1659034165731", "score": {}}{"name": "Apartamento Porto city center couple\u00b4s Getaway 1.2", "address": "-8.63019719930853,41.1303715834269,-8.58239280069147,41.1663024165731", "score": {}}{"name": "Apartamento FindMe InPorto Santa Catarina", "address": "-8.63000479325404,41.1308617930279,-8.58220003722796,41.1667926261741", "score": {"global": "9,5", "staff": "10", "commodities": "8,3", "cleanliness": "9,2", "confort": "9,6", "price/quality": "9,6", "location": "10"}}{"name": "Apartamento Loft om Hist\u00f3ria", "address": "-8.63765151214584,41.1339725834269,-8.58984448785416,41.1699034165731", "score": {"global": "9,6", "staff": "9,8", "commodities": "9,8", "cleanliness": "9,9", "confort": "9,6", "price/quality": "9,4", "location": "9,4"}}{"name": "Apartamento LovelyStay - Martires Boutique Fla", "address": "-8.63763851943802,41.1339925834269,-8.58983148056198,41.1699234165731", "score": {"global": "9,8", "staff": "10", "commodities": "9,5", "cleanliness": "10", "confort": "9,5", "price/quality": "9,5", "location": "10"}}{"name": "stel Porto Downtown Hos", "address": "-8.63830976792677,41.1297977930638,-8.59050578764574,41.16572862621", "score": {"global": "", "staff": "8,6", "commodities": "7,3", "cleanliness": "7,2", "confort": "6,9", "price/quality": "7,8", "location": "9,0", "free-wifi": "7,5"}}{"name": "Apartamento Renaissance Studi", "address": "-8.63764931349162,41.1339942753966,-8.58984227338176,41.1699251085428", "score": {}}{"name": "Apartamento Trindade77 Apartmen", "address": "-8.63248744993562,41.1346793853002,-8.58467991022225,41.1706102184464", "score": {"global": "9,2", "staff": "9,1", "commodities": "9,2", "cleanliness": "9,1", "confort": "9,1", "price/quality": "8,8", "location": "9,7"}}{"name": "Apartamento Inn Oporto Old Town Apartments", "address": "-8.63414331053431,41.1281471250705,-8.58634053364599,41.1640779582167", "score": {"global": "9,6", "staff": "9,6", "commodities": "9,4", "cleanliness": "9,8", "confort": "9,5", "price/quality": "9,6", "location": "9,8", "free-wifi": "9,0"}}{"name": "Casa de h\u00f3spedes B-Around Residence Catarina", "address": "-8.6300472915384,41.1306245834269,-8.5822427084616,41.1665554165731", "score": {"global": "", "staff": "8,9", "commodities": "8,5", "cleanliness": "9,2", "confort": "8,5", "price/quality": "8,7", "location": "9,5", "free-wifi": "10"}}{"name": "Apartamento Santa Catarina Love Nes", "address": "-8.63004709161131,41.1306247834269,-8.58224250838869,41.1665556165731", "score": {}}{"name": "Apartamento Canal 1 Apartmen", "address": "-8.63005780821812,41.1305912371569,-8.58225324945388,41.1665220703031", "score": {}}{"name": "Apartamento Your Opo Central Apartments", "address": "-8.63107778082572,41.1292235834269,-8.58327421917428,41.1651544165731", "score": {"global": "9,8", "staff": "10", "commodities": "9,3", "cleanliness": "10", "confort": "10", "price/quality": "9,3", "location": "10"}}{"name": "Apartamento Casa do Poeta", "address": "-8.63019592549895,41.1302417694289,-8.58239162152705,41.1661726025751", "score": {}}{"name": "Apartamento Moon House-Santa Catarina", "address": "-8.63029542077809,41.1300539768797,-8.58249125372143,41.1659848100259", "score": {"global": "9,8", "staff": "10", "commodities": "9,8", "cleanliness": "10", "confort": "9,6", "price/quality": "9,6", "location": "9,9", "free-wifi": "10"}}{"name": "Apartamento Casa Oliveira", "address": "-8.63019303609711,41.1301981834269,-8.58238876390288,41.1661290165731", "score": {}}{"name": "Apartamento Mosaic", "address": "-8.63025087952082,41.1300429834269,-8.58244672047918,41.1659738165731", "score": {}}{"name": "Apartamento Santa Catarina Downtown II", "address": "-8.62985281501162,41.1309632834269,-8.58204798498838,41.1668941165731", "score": {}}{"name": "Apartamento Santa Catarina Downtown I", "address": "-8.62985281501162,41.1309632834269,-8.58204798498838,41.1668941165731", "score": {}}{"name": "Apartamento Santa Catarina Apartment Porto Center", "address": "-8.62985241512099,41.1309635834269,-8.58204758487901,41.1668944165731", "score": {"global": "9,0", "staff": "9,2", "commodities": "8,4", "cleanliness": "9,1", "confort": "9,4", "price/quality": "8,4", "location": "9,5"}}{"name": "Apartamento Cozy Sunny Flats w/Garage | Cl\u00e9rigos", "address": "-8.63760207256184,41.1341382834269,-8.58979492743826,41.1700691165731", "score": {"global": "8,3", "staff": "9,0", "commodities": "8,1", "cleanliness": "8,2", "confort": "8,0", "price/quality": "7,9", "location": "8,4", "free-wifi": "9,2"}}{"name": "stel Secret Hos", "address": "-8.63378937198993,41.1281019834269,-8.58598662800999,41.1640328165731", "score": {"global": "", "staff": "8,2", "commodities": "6,9", "cleanliness": "7,9", "confort": "7,1", "price/quality": "7,1", "location": "9,2", "free-wifi": "6,6"}}{"name": "Apartamento Romantic Catarina", "address": "-8.63020626307117,41.1300704403852,-8.58240208401139,41.1660012735314", "score": {"global": "9,0", "staff": "8,9", "commodities": "8,9", "cleanliness": "9,3", "confort": "8,7", "price/quality": "8,7", "location": "9,4", "free-wifi": "8,1"}}{"name": "Aparthotel Almada 15 Apartments", "address": "-8.6361464440157,41.1282995834269,-8.5883435559843,41.1642304165731", "score": {}}{"name": "Apartamento Citybreak-apartments Sao Ben", "address": "-8.63353497658274,41.1281145834269,-8.58573222341737,41.1640454165731", "score": {"global": "8,8", "staff": "9,1", "commodities": "8,5", "cleanliness": "8,6", "confort": "8,5", "price/quality": "8,5", "location": "9,6", "free-wifi": "9,1"}}{"name": "Apartamento Station Flats", "address": "-8.63279922763474,41.1282546429472,-8.58499637236531,41.1641854760934", "score": {"global": "8,0", "staff": "7,9", "commodities": "7,5", "cleanliness": "7,6", "confort": "7,6", "price/quality": "7,9", "location": "9,1", "free-wifi": "9,4"}}{"name": "Apartamento APOSENTUS - Your home in Almada living", "address": "-8.63614742870653,41.1282575834269,-8.58834457129347,41.1641884165731", "score": {}}{"name": "Apartamento Cosy One Bedroom Central Apartmen", "address": "-8.63849130432176,41.1334025834269,-8.59068469567824,41.1693334165731", "score": {"global": "7,7", "staff": "7,3", "commodities": "7,4", "cleanliness": "8,0", "confort": "7,7", "price/quality": "7,3", "location": "8,7", "free-wifi": "7,5"}}{"name": "Apartamento ORM Pra\u00e7a Apartmen", "address": "-8.63908428453501,41.1308796834269,-8.59127951546499,41.1668105165731", "score": {}}{"name": "Apartamento Cozy Flat & Garage | Ace Location", "address": "-8.63773657741113,41.1341515834269,-8.58992942258887,41.1700824165731", "score": {"global": "7,8", "staff": "8,8", "commodities": "7,5", "cleanliness": "7,2", "confort": "7,3", "price/quality": "7,9", "location": "8,0", "free-wifi": "7,5"}}{"name": "Apartamento Sunday - Oporto Sunset Apartmen", "address": "-8.62966836994848,41.1317483918634,-8.5818629674858,41.1676792250096", "score": {"global": "9,0", "staff": "9,4", "commodities": "8,7", "cleanliness": "9,2", "confort": "8,5", "price/quality": "8,8", "location": "9,6", "free-wifi": "9,4"}}{"name": "Apartamento Your Opo Formosa Apartments", "address": "-8.62998512330653,41.1302674161459,-8.5821808006361,41.1661982492921", "score": {"global": "9,2", "staff": "9,6", "commodities": "8,7", "cleanliness": "9,2", "confort": "9,0", "price/quality": "8,9", "location": "9,6", "free-wifi": "9,6"}}{"name": "stel Oporto City Hos", "address": "-8.63161400175687,41.134487470814,-8.58380660199527,41.1704183039602", "score": {"global": "", "staff": "9,2", "commodities": "8,5", "cleanliness": "8,8", "confort": "8,2", "price/quality": "8,8", "location": "8,9", "free-wifi": "8,9"}}{"name": "Apartamento Exciting flat in the heart of Porto!", "address": "-8.63881816905702,41.1330315834269,-8.59101183094298,41.1689624165731", "score": {}}{"name": "Apartamento TPC - Amaryllis", "address": "-8.63881816960391,41.1330330834269,-8.59101183039609,41.1689639165731", "score": {}}{"name": "Apartamento Santa Catarina Residenc", "address": "-8.62966930370135,41.1320158293037,-8.58186370623911,41.1679466624499", "score": {"global": "8,6", "staff": "8,8", "commodities": "8,6", "cleanliness": "8,9", "confort": "8,5", "price/quality": "8,0", "location": "8,9", "free-wifi": "10"}}{"name": "Apartamento Santa Catarina Apartmen", "address": "-8.6296666266989,41.1320301105655,-8.58186101882354,41.1679609437117", "score": {"global": "9,3", "staff": "9,5", "commodities": "9,1", "cleanliness": "9,5", "confort": "9,0", "price/quality": "8,8", "location": "9,5", "free-wifi": "9,0"}}{"name": "Apartamento Metro Loft | City Centr", "address": "-8.63233082389317,41.1348275834269,-8.58452317610683,41.1707584165731", "score": {"global": "9,3", "staff": "9,7", "commodities": "9,7", "cleanliness": "9,1", "confort": "9,1", "price/quality": "8,8", "location": "9,7"}}{"name": "Apartamento PortoSoul Trindad", "address": "-8.63231382170542,41.1348215834269,-8.58450617829457,41.1707524165731", "score": {"global": "9,7", "staff": "9,9", "commodities": "9,5", "cleanliness": "9,8", "confort": "9,6", "price/quality": "9,4", "location": "9,8", "free-wifi": "10"}}{"name": "Apartamento TPC Given to Fly", "address": "-8.63231342177831,41.1348217834269,-8.58450577822161,41.1707526165731", "score": {"global": "8,4", "staff": "8,8", "commodities": "8,2", "cleanliness": "8,2", "confort": "8,5", "price/quality": "7,7", "location": "8,9"}}{"name": "Apartamento LV Premier Apartments Firmeza- SB1", "address": "-8.63027069783186,41.1333847834269,-8.58246410216804,41.1693156165731", "score": {"global": "9,1", "staff": "9,1", "commodities": "9,3", "cleanliness": "9,3", "confort": "8,6", "price/quality": "8,9", "location": "9,3", "free-wifi": "10"}}{"name": "Apartamento Liiiving in Porto | Historic Cl\u00e9rigos Apartments", "address": "-8.63741830024401,41.1287281834269,-8.58961509975597,41.1646590165731", "score": {"global": "9,0", "staff": "9,5", "commodities": "8,9", "cleanliness": "9,0", "confort": "8,9", "price/quality": "8,6", "location": "9,2", "free-wifi": "9,2"}}{"name": "Casa de h\u00f3spedes B-Around, Residenc", "address": "-8.629954015779,41.1302314302871,-8.58214971934517,41.1661622634333", "score": {"global": "", "staff": "8,9", "commodities": "8,0", "cleanliness": "9,0", "confort": "8,0", "price/quality": "8,3", "location": "9,3", "free-wifi": "9,0"}}{"name": "Apartamento Comfy Luxury Apartmen", "address": "-8.63234583519655,41.1348585834269,-8.58453816480345,41.1707894165731", "score": {"global": "9,2", "staff": "9,3", "commodities": "9,6", "cleanliness": "9,1", "confort": "9,7", "price/quality": "8,8", "location": "8,8", "free-wifi": "7,5"}}{"name": "Apartamento 118 Luxury Apts by Porto City Hosts", "address": "-8.63288170616996,41.1281193643523,-8.58507894951928,41.1640501974985", "score": {"global": "8,6", "staff": "8,9", "commodities": "8,0", "cleanliness": "8,7", "confort": "7,9", "price/quality": "8,3", "location": "9,5", "free-wifi": "8,9"}}{"name": "Apartamento ChillHouse_Por", "address": "-8.63199095928181,41.1347243875081,-8.58418338675082,41.1706552206542", "score": {"global": "9,6", "staff": "9,8", "commodities": "9,5", "cleanliness": "9,8", "confort": "9,4", "price/quality": "9,4", "location": "9,5", "free-wifi": "10"}}{"name": "Casa de h\u00f3spedes Porta 110", "address": "-8.63299880831402,41.1280901415187,-8.58519607296684,41.1640209746649", "score": {"global": "", "staff": "9,8", "commodities": "9,3", "cleanliness": "9,7", "confort": "9,3", "price/quality": "9,2", "location": "9,8", "free-wifi": "9,6"}}{"name": "Casa de h\u00f3spedes OportoHous", "address": "-8.63743296003008,41.12871116181,-8.5896297719512,41.1646419949562", "score": {"global": "", "staff": "8,9", "commodities": "7,9", "cleanliness": "8,7", "confort": "7,9", "price/quality": "8,4", "location": "9,3", "free-wifi": "8,8"}}{"name": "Apartamento Suite In", "address": "-8.63192878341995,41.1347165834269,-8.58412121658005,41.1706474165731", "score": {"global": "9,4", "staff": "9,5", "commodities": "9,5", "cleanliness": "9,8", "confort": "9,2", "price/quality": "9,1", "location": "9,3", "free-wifi": "7,5"}}{"name": "Apartamento Feels Like Home Porto Modern Apartmen", "address": "-8.63192878341995,41.1347165834269,-8.58412121658005,41.1706474165731", "score": {"global": "9,2", "staff": "8,8", "commodities": "8,9", "cleanliness": "9,2", "confort": "9,5", "price/quality": "9,3", "location": "9,5"}}{"name": "Apartamento Aurora Garden", "address": "-8.63192878341995,41.1347165834269,-8.58412121658005,41.1706474165731", "score": {"global": "9,3", "staff": "9,2", "commodities": "9,5", "cleanliness": "9,8", "confort": "9,3", "price/quality": "9,0", "location": "9,1", "free-wifi": "7,5"}}{"name": "Apartamento Aurora Str", "address": "-8.63192878341995,41.1347165834269,-8.58412121658005,41.1706474165731", "score": {"global": "9,4", "staff": "9,7", "commodities": "9,3", "cleanliness": "9,8", "confort": "9,2", "price/quality": "9,0", "location": "9,3", "free-wifi": "10"}}{"name": "Apartamento Cosy Family Por", "address": "-8.62993194761907,41.1329727834269,-8.58212565238093,41.1689036165731", "score": {}}{"name": "Apartamento Tito Studio Terrac", "address": "-8.63194739031132,41.1347354834269,-8.58413980968868,41.1706663165731", "score": {}}{"name": "Apartamento Invictus Plac", "address": "-8.632546800494,41.1281801834269,-8.584743999506,41.1641110165731", "score": {"global": "9,6", "staff": "10", "commodities": "9,2", "cleanliness": "9,6", "confort": "9,2", "price/quality": "9,6", "location": "10"}}{"name": "Apartamento Apartamento da Pra\u00e7a", "address": "-8.63885039734733,41.1331461834099,-8.59104397566867,41.1690770165561", "score": {}}{"name": "Casa de h\u00f3spedes Duas Na\u00e7\u00f5es Guest Hous", "address": "-8.63875973352194,41.1298664643224,-8.59095570317507,41.1657972974686", "score": {"global": "", "staff": "7,9", "commodities": "6,4", "cleanliness": "7,4", "confort": "6,3", "price/quality": "7,5", "location": "9,2", "free-wifi": "7,7"}}{"name": "Apartamento Porto Downtown Cosy Apartmen", "address": "-8.6314116926295,41.1344675834269,-8.5836043073705,41.1703984165731", "score": {"global": "7,9", "staff": "7,8", "commodities": "7,3", "cleanliness": "7,9", "confort": "8,2", "price/quality": "7,8", "location": "8,6", "free-wifi": "7,5"}}{"name": "Apartamento vitoria fla", "address": "-8.6392893498582,41.1320433205748,-8.59148373235081,41.167974153721", "score": {"global": "9,4", "staff": "9,6", "commodities": "9,2", "cleanliness": "9,4", "confort": "9,2", "price/quality": "9,2", "location": "9,8"}}{"name": "Apartamento Moinho de Vento Studios", "address": "-8.63902341370153,41.1302865692802,-8.5912190770669,41.1662174024264", "score": {"global": "7,3", "staff": "7,6", "commodities": "6,6", "cleanliness": "6,8", "confort": "6,5", "price/quality": "7,3", "location": "9,0", "free-wifi": "8,2"}}{"name": "Apartamento Aurora Sky", "address": "-8.63197538245571,41.1347689628176,-8.58416777741833,41.1706997959638", "score": {"global": "9,4", "staff": "9,7", "commodities": "9,2", "cleanliness": "9,7", "confort": "9,1", "price/quality": "9,3", "location": "9,2", "free-wifi": "7,5"}}{"name": "Apartamento Oporto Wish Apartments I", "address": "-8.63266433688789,41.1281290655122,-8.58486157316504,41.1640598986584", "score": {"global": "9,1", "staff": "9,7", "commodities": "8,4", "cleanliness": "9,1", "confort": "8,8", "price/quality": "8,8", "location": "9,9", "free-wifi": "8,8"}}{"name": "Apartamento Cosy Bright Flat | Ace Location #04", "address": "-8.63143741992274,41.1345037098246,-8.58363000831906,41.1704345429708", "score": {"global": "7,0", "staff": "7,5", "commodities": "6,0", "cleanliness": "8,0", "confort": "6,5", "price/quality": "6,0", "location": "8,0"}}{"name": "Apartamento Porto D`Alma Santa Catarina - Lof", "address": "-8.62960890035802,41.1322945834269,-8.58180309964198,41.1682254165731", "score": {}}{"name": "Apartamento Porto D`Alma Santa Catarina - Duplex", "address": "-8.62960890035802,41.1322945834269,-8.58180309964198,41.1682254165731", "score": {}}{"name": "Apartamento TPC - C'est La Vi", "address": "-8.63232185816797,41.1349215834269,-8.58451414183203,41.1708524165731", "score": {}}{"name": "Apartamento Downtown Porto Cozy Fla", "address": "-8.62956183254683,41.1321085834269,-8.58175616745317,41.1680394165731", "score": {}}{"name": "Casa de f\u00e9rias Porto Exclusive Hous", "address": "-8.63933798569429,41.1318639669472,-8.59153249896143,41.1677948000934", "score": {"global": "5,4", "staff": "5,4", "commodities": "5,0", "cleanliness": "7,1", "confort": "3,8", "price/quality": "5,0", "location": "6,2"}}{"name": "Apartamento APOSENTUS - Your Home in Martires da Liberdad", "address": "-8.63751482739855,41.1344657350689,-8.58970744348745,41.1703965682151", "score": {"global": "9,3", "staff": "9,5", "commodities": "9,5", "cleanliness": "9,5", "confort": "9,5", "price/quality": "9,0", "location": "9,0"}}{"name": "Apartamento PortoWhite city lofts", "address": "-8.62955351060465,41.1320854047335,-8.58174786241169,41.1680162378796", "score": {"global": "9,5", "staff": "9,6", "commodities": "9,5", "cleanliness": "9,7", "confort": "9,4", "price/quality": "9,1", "location": "9,7", "free-wifi": "9,5"}}{"name": "Apartamento Your Opo Capela Apartments", "address": "-8.62955882427439,41.1321700687007,-8.58175311434872,41.1681009018469", "score": {"global": "9,4", "staff": "9,6", "commodities": "9,2", "cleanliness": "9,3", "confort": "9,3", "price/quality": "8,9", "location": "9,7", "free-wifi": "9,4"}}{"name": "Casa de f\u00e9rias House Cedofeita", "address": "-8.63935640222926,41.1318487291829,-8.59155092660686,41.1677795623291", "score": {"global": "7,6", "staff": "7,8", "commodities": "7,3", "cleanliness": "7,8", "confort": "7,1", "price/quality": "7,0", "location": "8,4", "free-wifi": "7,5"}}{"name": "Apartamento Bonjardim Mega Refug", "address": "-8.6319782996194,41.1348130639888,-8.58417066242134,41.170743897135", "score": {"global": "9,0", "staff": "9,0", "commodities": "8,9", "cleanliness": "9,4", "confort": "8,6", "price/quality": "8,6", "location": "9,2", "free-wifi": "10"}}{"name": "Apartamento Oporto Blue Galerias", "address": "-8.6382657753579,41.1292085834269,-8.5904622246421,41.1651394165731", "score": {}}{"name": "Apartamento Galerias Fashion Flats", "address": "-8.63826567532139,41.1292084834269,-8.59046212467849,41.1651393165731", "score": {"global": "9,1", "staff": "9,0", "commodities": "9,2", "cleanliness": "9,3", "confort": "8,9", "price/quality": "8,6", "location": "9,1", "free-wifi": "9,1"}}{"name": "Apartamento BmyGuest Exclusive Studios", "address": "-8.63245926487608,41.1281375425107,-8.58465649497347,41.1640683756569", "score": {"global": "9,2", "staff": "9,6", "commodities": "8,8", "cleanliness": "9,2", "confort": "8,8", "price/quality": "9,0", "location": "9,8", "free-wifi": "10"}}{"name": "Apartamento Pretty Porto Apartment by SOULSHARING.PORTO", "address": "-8.63224386618975,41.1349435834269,-8.58443613381025,41.1708744165731", "score": {"global": "9,7", "staff": "9,8", "commodities": "9,8", "cleanliness": "9,4", "confort": "9,8", "price/quality": "9,6", "location": "9,8"}}{"name": "Apartamento Downtown Porto Studi", "address": "-8.63193612174189,41.1348216834269,-8.58412847825811,41.1707525165731", "score": {}}{"name": "Apartamento Porto Belo Cl\u00e9rigos", "address": "-8.63902009978908,41.1300985834269,-8.59121590021092,41.1660294165731", "score": {"global": "9,7", "staff": "9,8", "commodities": "9,4", "cleanliness": "9,8", "confort": "9,6", "price/quality": "9,5", "location": "9,8", "free-wifi": "10"}}{"name": "Apartamento Clerigos View", "address": "-8.63647452859118,41.1281465437609,-8.58867175212663,41.1640773769071", "score": {"global": "8,6", "staff": "8,1", "commodities": "8,3", "cleanliness": "8,6", "confort": "8,4", "price/quality": "8,4", "location": "9,5", "free-wifi": "9,1"}}{"name": "Apartamento D.B. Santa Catarina", "address": "-8.62949945882399,41.13216551155,-8.58169375222117,41.1680963446962", "score": {"global": "9,3", "staff": "9,4", "commodities": "9,0", "cleanliness": "9,3", "confort": "9,0", "price/quality": "9,0", "location": "9,8", "free-wifi": "10"}}{"name": "Apartamento LV Premier Bonjardim BJ1", "address": "-8.6319128242578,41.1348285834269,-8.5841051757422,41.1707594165731", "score": {"global": "9,7", "staff": "10", "commodities": "8,9", "cleanliness": "10", "confort": "10", "price/quality": "10", "location": "9,3"}}{"name": "Apartamento TPC Church's Postcard", "address": "-8.63618447412649,41.135109906132,-8.58837662045505,41.1710407392782", "score": {"global": "8,5", "staff": "9,1", "commodities": "7,8", "cleanliness": "8,1", "confort": "7,9", "price/quality": "8,8", "location": "9,2", "free-wifi": "10"}}{"name": "Apartamento Be Oporto Apartments Cl\u00e9rigos", "address": "-8.63740452821673,41.1285305834269,-8.58960147178326,41.1644614165731", "score": {"global": "9,1", "staff": "8,8", "commodities": "9,0", "cleanliness": "9,3", "confort": "8,9", "price/quality": "9,0", "location": "9,6", "free-wifi": "8,2"}}{"name": "Apartamento Pretty 163", "address": "-8.63195463763688,41.1282820834269,-8.58415176236312,41.1642129165731", "score": {}}{"name": "Apartamento Antiquarium Private Residenc", "address": "-8.63763297292961,41.1344926402236,-8.58982556939828,41.1704234733698", "score": {"global": "8,3", "staff": "8,2", "commodities": "8,0", "cleanliness": "8,6", "confort": "7,4", "price/quality": "8,2", "location": "9,3", "free-wifi": "8,0"}}{"name": "Apartamento LV Premier Apartments Firmeza- SC", "address": "-8.62980083985806,41.1330490905632,-8.5819944889781,41.1689799237094", "score": {"global": "9,3", "staff": "9,2", "commodities": "9,0", "cleanliness": "9,5", "confort": "9,4", "price/quality": "8,8", "location": "9,5", "free-wifi": "9,2"}}{"name": "Apartamento De Porto e Alma", "address": "-8.62954296197197,41.1324635834269,-8.58173703802803,41.1683944165731", "score": {"global": "9,3", "staff": "9,5", "commodities": "9,0", "cleanliness": "9,7", "confort": "9,3", "price/quality": "9,0", "location": "9,3"}}{"name": "Apartamento GreenHouse of Por", "address": "-8.63192343818363,41.1282835834269,-8.58412056181637,41.1642144165731", "score": {}}{"name": "Apartamento DAHome - January's 31 Studi", "address": "-8.63192353807428,41.1282832834269,-8.58412066192572,41.1642141165731", "score": {}}{"name": "Casa de h\u00f3spedes Vivacity Porto - Rooms & Apartments", "address": "-8.63878379940888,41.129663479953,-8.5909799170504,41.1655943130992", "score": {"global": "", "staff": "8,8", "commodities": "8,1", "cleanliness": "8,9", "confort": "8,3", "price/quality": "8,3", "location": "9,5", "free-wifi": "8,6"}}{"name": "Casa de h\u00f3spedes Pinho Apartments, Studios and Rooms", "address": "-8.63884766222619,41.1297397229185,-8.59104372428196,41.1656705560647", "score": {"global": "", "staff": "8,3", "commodities": "8,7", "cleanliness": "9,3", "confort": "9,0", "price/quality": "8,9", "location": "9,7", "free-wifi": "8,0"}}{"name": "Casa de h\u00f3spedes Cool Guesthous", "address": "-8.62973013259754,41.1301885834269,-8.58192586740246,41.1661194165731", "score": {"global": "", "staff": "8,6", "commodities": "8,7", "cleanliness": "9,6", "confort": "8,6", "price/quality": "8,9", "location": "9,6", "free-wifi": "10"}}{"name": "Apartamento Santa Catarina Oporto Apartmen", "address": "-8.62942655890567,41.1321808834269,-8.58162084109443,41.1681117165731", "score": {"global": "9,5", "staff": "9,5", "commodities": "9,6", "cleanliness": "9,8", "confort": "9,7", "price/quality": "9,3", "location": "9,3", "free-wifi": "10"}}{"name": "Casa de h\u00f3spedes Guest House Porto Clerigus", "address": "-8.63829677416311,41.1291029974608,-8.59049330042376,41.165033830607", "score": {"global": "", "staff": "8,5", "commodities": "6,9", "cleanliness": "7,7", "confort": "6,7", "price/quality": "7,3", "location": "8,9", "free-wifi": "8,1"}}{"name": "Casa de h\u00f3spedes StayIN Oporto Musica Guest Apartmen", "address": "-8.63008211726054,41.1335463306943,-8.58227540379659,41.1694771638405", "score": {"global": "", "staff": "7,6", "commodities": "8,1", "cleanliness": "8,7", "confort": "8,0", "price/quality": "8,3", "location": "9,0", "free-wifi": "8,7"}}{"name": "Apartamento apartment with balcony in the squar", "address": "-8.639158513752,41.133001028735,-8.59135219791792,41.1689318618812", "score": {"global": "9,6", "staff": "9,8", "commodities": "9,4", "cleanliness": "9,8", "confort": "9,3", "price/quality": "9,6", "location": "9,4", "free-wifi": "10"}}{"name": "Apartamento Msc Flats", "address": "-8.63747815851633,41.1346482834269,-8.58967064148379,41.1705791165731", "score": {"global": "9,5", "staff": "9,7", "commodities": "9,5", "cleanliness": "9,7", "confort": "9,4", "price/quality": "9,2", "location": "9,3", "free-wifi": "9,8"}}{"name": "Apartamento Bonjardim Terrac", "address": "-8.63189469690266,41.1349066625939,-8.58408699144778,41.1708374957401", "score": {"global": "10", "staff": "10", "commodities": "10", "cleanliness": "10", "confort": "10", "price/quality": "10", "location": "10"}}{"name": "Apartamento Oporto Welcome Apartments - Carruagem 42", "address": "-8.63482247061419,41.1277295003576,-8.5870199981725,41.1636603335038", "score": {"global": "9,5", "staff": "9,5", "commodities": "9,2", "cleanliness": "9,6", "confort": "9,4", "price/quality": "9,3", "location": "9,8", "free-wifi": "9,6"}}{"name": "Apartamento Downtown with Terrac", "address": "-8.639142981235,41.1331048419766,-8.59133658970196,41.1690356751228", "score": {}}{"name": "Apartamento Downtown Sta Catarina Apartment - Female only", "address": "-8.63072866272172,41.1288995834269,-8.58292533727828,41.1648304165731", "score": {"global": "8,1", "staff": "8,4", "commodities": "7,3", "cleanliness": "8,6", "confort": "6,8", "price/quality": "7,8", "location": "9,5", "free-wifi": "8,4"}}{"name": "Apartamento Casa D'our", "address": "-8.639061730345,41.1299080834269,-8.591257669655,41.1658389165731", "score": {}}{"name": "Apartamento Imbrication Balcony - Historic Centr", "address": "-8.639061730345,41.1299080834269,-8.591257669655,41.1658389165731", "score": {}}{"name": "Apartamento BO - S\u00e1 de Noronha Apartments", "address": "-8.63906175672274,41.129908051809,-8.59125769605579,41.1658388849552", "score": {"global": "9,8", "staff": "9,9", "commodities": "9,8", "cleanliness": "9,9", "confort": "9,8", "price/quality": "9,5", "location": "9,8", "free-wifi": "9,8"}}{"name": "Apartamento S. Bento 163", "address": "-8.63193314609857,41.1281891729913,-8.58413033855714,41.1641200061375", "score": {"global": "8,9", "staff": "9,2", "commodities": "8,7", "cleanliness": "8,8", "confort": "8,3", "price/quality": "8,7", "location": "9,7", "free-wifi": "8,8"}}{"name": "Apartamento OTF- Porto Centr", "address": "-8.63233704162861,41.1351127964183,-8.58452918584941,41.1710436295645", "score": {"global": "9,8", "staff": "10", "commodities": "9,7", "cleanliness": "9,9", "confort": "9,8", "price/quality": "9,4", "location": "9,6", "free-wifi": "9,0"}}{"name": "Apartamento Beautiful & Calm In Formosa", "address": "-8.62962396930445,41.1301845753829,-8.58181970703155,41.1661154085291", "score": {}}{"name": "stel Travel & Live Porto Hos", "address": "-8.62940982758785,41.1324593197631,-8.58160390675281,41.1683901529093", "score": {"global": "", "staff": "9,1", "commodities": "8,3", "cleanliness": "8,9", "confort": "8,4", "price/quality": "8,8", "location": "9,5", "free-wifi": "8,4"}}{"name": "Alojamento de acomoda\u00e7\u00e3o e pequeno-almo\u00e7o Feels Like Home Santa Catarina Prime Suites", "address": "-8.63085361715742,41.1287745834269,-8.58305038284258,41.1647054165731", "score": {"global": "", "staff": "9,8", "commodities": "9,2", "cleanliness": "9,6", "confort": "9,2", "price/quality": "9,2", "location": "9,7", "free-wifi": "9,4"}}{"name": "Apartamento Porto B", "address": "-8.63751787089758,41.1346949245543,-8.5897103198523,41.1706257577005", "score": {"global": "9,2", "staff": "9,3", "commodities": "9,0", "cleanliness": "9,6", "confort": "9,1", "price/quality": "9,1", "location": "9,2", "free-wifi": "9,0"}}{"name": "Apartamento Sendme2Portugal: Santa Catarina", "address": "-8.62947515363979,41.1326947392376,-8.58166906114477,41.1686255723838", "score": {"global": "9,5", "staff": "9,5", "commodities": "9,5", "cleanliness": "9,6", "confort": "9,3", "price/quality": "9,1", "location": "9,7", "free-wifi": "9,3"}}{"name": "Apartamento APOSENTUS - Downtown Porto Modern Penthous", "address": "-8.63942353889797,41.1304801834269,-8.59161906110203,41.1664110165731", "score": {}}{"name": "Apartamento Santa Catarina Downtown III", "address": "-8.62927055934147,41.1310848834269,-8.58146564065853,41.1670157165731", "score": {}}{"name": "Apartamento OPORTO ACE PLACE 2", "address": "-8.63893535354271,41.1335375834269,-8.59112864645729,41.1694684165731", "score": {"global": "8,6", "staff": "8,8", "commodities": "8,1", "cleanliness": "8,3", "confort": "8,8", "price/quality": "8,4", "location": "9,4", "free-wifi": "7,9"}}{"name": "stel The Passenger Hos", "address": "-8.63443587622915,41.1276527898951,-8.58663345970835,41.1635836230413", "score": {"global": "", "staff": "9,6", "commodities": "9,5", "cleanliness": "9,7", "confort": "9,3", "price/quality": "9,4", "location": "9,8", "free-wifi": "8,7"}}{"name": "Apartamento Oporto Santa Catarina Apartments", "address": "-8.62940440039548,41.1326043498402,-8.58159837380962,41.1685351829864", "score": {"global": "9,1", "staff": "9,1", "commodities": "8,8", "cleanliness": "9,4", "confort": "8,8", "price/quality": "8,8", "location": "9,6", "free-wifi": "8,1"}}{"name": "stel Garden House Hos", "address": "-8.629415928621,41.1326405210603,-8.58160987566024,41.1685713542065", "score": {"global": "", "staff": "9,6", "commodities": "8,9", "cleanliness": "9,2", "confort": "8,9", "price/quality": "9,0", "location": "9,6", "free-wifi": "7,8"}}{"name": "Apartamento Porto D`Alma - Santa Catarina W/ Terrac", "address": "-8.62936397801356,41.1325075834269,-8.58155802198644,41.1684384165731", "score": {}}{"name": "Apartamento BmyGuest - Santa Catarina Downtown Apartmen", "address": "-8.63074586210413,41.1287894840818,-8.58294261692632,41.164720317228", "score": {"global": "7,9", "staff": "8,9", "commodities": "7,1", "cleanliness": "7,4", "confort": "7,5", "price/quality": "7,0", "location": "9,4", "free-wifi": "7,5"}}{"name": "Apartamento Apartamento Cardosas, S\u00e3o Ben", "address": "-8.63470838493505,41.1276422869807,-8.58690597607073,41.1635731201269", "score": {}}{"name": "Apartamento Santo Porto Baixa", "address": "-8.63071644821916,41.1343457834269,-8.58290915178084,41.1702766165731", "score": {"global": "9,6", "staff": "10", "commodities": "9,6", "cleanliness": "10", "confort": "10", "price/quality": "8,9", "location": "8,9", "free-wifi": "10"}}{"name": "Apartamento Citybreak-apartments S\u00e1 da Bandeira", "address": "-8.6300588270102,41.1337390834269,-8.58225197298987,41.1696699165731", "score": {"global": "9,5", "staff": "9,4", "commodities": "9,4", "cleanliness": "9,6", "confort": "9,6", "price/quality": "9,4", "location": "9,5", "free-wifi": "9,4"}}{"name": "Casa de h\u00f3spedes Guest House 31 de Janeiro (AL)", "address": "-8.63158423651761,41.1282536806261,-8.58378138194972,41.1641845137723", "score": {"global": "", "staff": "7,7", "commodities": "6,5", "cleanliness": "7,5", "confort": "6,5", "price/quality": "7,5", "location": "9,0", "free-wifi": "7,7"}}{"name": "Apartamento Feels Like Home Porto S.Bento Apartments", "address": "-8.63500464181081,41.1276392358236,-8.58720223517073,41.1635700689698", "score": {"global": "8,4", "staff": "8,1", "commodities": "7,9", "cleanliness": "8,4", "confort": "8,2", "price/quality": "8,2", "location": "9,7", "free-wifi": "6,8"}}{"name": "Apartamento Feel Porto Vintage Townhouses", "address": "-8.63053281067818,41.1342428226411,-8.58272558932191,41.1701736557873", "score": {"global": "9,4", "staff": "9,5", "commodities": "9,5", "cleanliness": "9,7", "confort": "9,5", "price/quality": "9,1", "location": "9,2", "free-wifi": "8,4"}}